[{"lat": 59.2, "lon": 17.63, "order_date": "2023-01-06", "order_total": 69051.43, "order_total_count": 136, "risk_score_count": 136, "risk_score": 1.9, "city": "Stockholm", "country": "SE"}, {"lat": 0, "lon": 0, "order_date": "2023-01-06", "order_total": 9953380.54, "order_total_count": 202547, "risk_score_count": 202547, "risk_score": 1.45, "city": "Western", "country": "GH"}, {"lat": -6.21, "lon": 106.85, "order_date": "2023-01-06", "order_total": 7834.49, "order_total_count": 6508, "risk_score_count": 6508, "risk_score": 3.75, "city": "Jakarta Raya", "country": "ID"}, {"lat": 46.88485, "lon": -102.76997, "order_date": "2023-01-06", "order_total": 6035.95, "order_total_count": 48, "risk_score_count": 5, "risk_score": 1.0, "city": "North Dakota", "country": "US"}, {"lat": 47.2, "lon": 8.53, "order_date": "2023-01-06", "order_total": 236785.95, "order_total_count": 2273, "risk_score_count": 2272, "risk_score": 1.99, "city": "Zug", "country": "CH"}, {"lat": 26.06055, "lon": -80.30358, "order_date": "2023-01-06", "order_total": 236889.48, "order_total_count": 640, "risk_score_count": 479, "risk_score": 1.13, "city": "Florida", "country": "US"}, {"lat": 43.49, "lon": 52.11, "order_date": "2023-01-06", "order_total": 7596.21, "order_total_count": 12, "risk_score_count": 12, "risk_score": 2.08, "city": "Mangghystau", "country": "KZ"}, {"lat": 39.33029, "lon": -104.96501, "order_date": "2023-01-06", "order_total": 111280.65, "order_total_count": 472, "risk_score_count": 209, "risk_score": 1.05, "city": "Colorado", "country": "US"}, {"lat": 51.86, "lon": 0.95, "order_date": "2023-01-06", "order_total": 7646.96, "order_total_count": 412, "risk_score_count": 412, "risk_score": 2.5, "city": "England", "country": "GB"}, {"lat": -3.01, "lon": 114.39, "order_date": "2023-01-06", "order_total": 292.33, "order_total_count": 345, "risk_score_count": 345, "risk_score": 3.54, "city": "Central Kalimantan", "country": "ID"}, {"lat": 40.93858, "lon": -73.9015, "order_date": "2023-01-06", "order_total": 639946.61, "order_total_count": 1264, "risk_score_count": 776, "risk_score": 1.06, "city": "New York", "country": "US"}, {"lat": 13.9125, "lon": 100.6067, "order_date": "2023-01-06", "order_total": 54742.68, "order_total_count": 935, "risk_score_count": 935, "risk_score": 2.99, "city": "Bangkok", "country": "TH"}, {"lat": -12.04, "lon": -77.03, "order_date": "2023-01-06", "order_total": 31823.55, "order_total_count": 42, "risk_score_count": 42, "risk_score": 1.52, "city": "Lima", "country": "PE"}, {"lat": 38.001, "lon": -121.72853, "order_date": "2023-01-06", "order_total": 264313.55, "order_total_count": 658, "risk_score_count": 293, "risk_score": 1.13, "city": "California", "country": "US"}, {"lat": 52.4, "lon": 13.06, "order_date": "2023-01-06", "order_total": 781820.76, "order_total_count": 3029, "risk_score_count": 3029, "risk_score": 2.08, "city": "Brandenburg", "country": "DE"}, {"lat": 41.25363, "lon": -79.46247, "order_date": "2023-01-06", "order_total": 48392.31, "order_total_count": 355, "risk_score_count": 78, "risk_score": 1.33, "city": "Pennsylvania", "country": "US"}, {"lat": 50.85, "lon": 4.35, "order_date": "2023-01-06", "order_total": 87189.36, "order_total_count": 2090, "risk_score_count": 2090, "risk_score": 1.88, "city": "Brussels Capital", "country": "BE"}, {"lat": -39.9667, "lon": 175.0167, "order_date": "2023-01-06", "order_total": 20725.6, "order_total_count": 30, "risk_score_count": 30, "risk_score": 1.5, "city": "Manawatu-Wanganui", "country": "NZ"}, {"lat": 33.3439, "lon": -97.522, "order_date": "2023-01-06", "order_total": 134121.53, "order_total_count": 568, "risk_score_count": 199, "risk_score": 1.07, "city": "Texas", "country": "US"}, {"lat": 40.05, "lon": -4.53, "order_date": "2023-01-06", "order_total": 28076.25, "order_total_count": 605, "risk_score_count": 605, "risk_score": 2.11, "city": "Castille-La Mancha", "country": "ES"}, {"lat": 35.87, "lon": 139.65, "order_date": "2023-01-06", "order_total": 27184.55, "order_total_count": 69, "risk_score_count": 69, "risk_score": 3.04, "city": "Saitama", "country": "JP"}, {"lat": 21.27797, "lon": -157.76151, "order_date": "2023-01-06", "order_total": 40934.75, "order_total_count": 76, "risk_score_count": 56, "risk_score": 1.04, "city": "Hawaii", "country": "US"}, {"lat": 48.17, "lon": 11.72, "order_date": "2023-01-06", "order_total": 1726076.45, "order_total_count": 10070, "risk_score_count": 10070, "risk_score": 1.96, "city": "Bavaria", "country": "DE"}, {"lat": 18.3372, "lon": -64.9733, "order_date": "2023-01-06", "order_total": 84922.22, "order_total_count": 157, "risk_score_count": 147, "risk_score": 1.31, "city": "Saint Thomas Island", "country": "VI"}, {"lat": 28.5694, "lon": 77.1181, "order_date": "2023-01-06", "order_total": 91143.74, "order_total_count": 71, "risk_score_count": 71, "risk_score": 1.56, "city": "NCT", "country": "IN"}, {"lat": 2.98, "lon": 99.62, "order_date": "2023-01-06", "order_total": 4210.08, "order_total_count": 703, "risk_score_count": 703, "risk_score": 3.06, "city": "North Sumatra", "country": "ID"}, {"lat": 42.27294, "lon": -87.84239, "order_date": "2023-01-06", "order_total": 262197.45, "order_total_count": 812, "risk_score_count": 332, "risk_score": 1.08, "city": "Illinois", "country": "US"}, {"lat": 40.19, "lon": 29.06, "order_date": "2023-01-06", "order_total": 22465.12, "order_total_count": 243, "risk_score_count": 243, "risk_score": 2.56, "city": "Bursa", "country": "TR"}, {"lat": 14.21, "lon": 121.17, "order_date": "2023-01-06", "order_total": 246620.01, "order_total_count": 165, "risk_score_count": 165, "risk_score": 1.43, "city": "Calabarzon", "country": "PH"}, {"lat": -7.68, "lon": 112.62, "order_date": "2023-01-06", "order_total": 1206.0, "order_total_count": 1501, "risk_score_count": 1501, "risk_score": 3.61, "city": "East Java", "country": "ID"}, {"lat": 33.8634, "lon": -84.96799, "order_date": "2023-01-06", "order_total": 153935.44, "order_total_count": 701, "risk_score_count": 243, "risk_score": 1.09, "city": "Georgia", "country": "US"}, {"lat": 36.0874, "lon": -115.06591, "order_date": "2023-01-06", "order_total": 69160.05, "order_total_count": 212, "risk_score_count": 140, "risk_score": 1.28, "city": "Nevada", "country": "US"}, {"lat": 61.54245, "lon": -149.03523, "order_date": "2023-01-06", "order_total": 18324.7, "order_total_count": 49, "risk_score_count": 16, "risk_score": 1.0, "city": "Alaska", "country": "US"}, {"lat": -17.6447, "lon": -63.1353, "order_date": "2023-01-06", "order_total": 19721.98, "order_total_count": 20, "risk_score_count": 20, "risk_score": 1.75, "city": "Santa Cruz", "country": "BO"}, {"lat": 47.5918, "lon": -122.16657, "order_date": "2023-01-06", "order_total": 79988.8, "order_total_count": 258, "risk_score_count": 101, "risk_score": 1.1, "city": "Washington", "country": "US"}, {"lat": 55.47, "lon": -4.47, "order_date": "2023-01-06", "order_total": 18900.06, "order_total_count": 605, "risk_score_count": 605, "risk_score": 2.42, "city": "Scotland", "country": "GB"}, {"lat": -1.35, "lon": 127.67, "order_date": "2023-01-06", "order_total": 1479.75, "order_total_count": 32, "risk_score_count": 32, "risk_score": 3.12, "city": "Maluku Utara", "country": "ID"}, {"lat": 6.1672, "lon": -75.5906, "order_date": "2023-01-06", "order_total": 71887.88, "order_total_count": 132, "risk_score_count": 132, "risk_score": 1.89, "city": "Antioquia", "country": "CO"}, {"lat": -33.62, "lon": 151.1, "order_date": "2023-01-06", "order_total": 32880.35, "order_total_count": 38, "risk_score_count": 35, "risk_score": 1.66, "city": "New South Wales", "country": "AU"}, {"lat": 25.25, "lon": 55.3333, "order_date": "2023-01-06", "order_total": 36636.35, "order_total_count": 273, "risk_score_count": 273, "risk_score": 2.38, "city": "Ash Shariqah", "country": "AE"}, {"lat": 45.17403, "lon": -93.85081, "order_date": "2023-01-06", "order_total": 82997.74, "order_total_count": 327, "risk_score_count": 84, "risk_score": 1.11, "city": "Minnesota", "country": "US"}, {"lat": 53.04, "lon": 6.7, "order_date": "2023-01-06", "order_total": 114468.15, "order_total_count": 993, "risk_score_count": 993, "risk_score": 1.34, "city": "Drenthe", "country": "NL"}, {"lat": 43.43, "lon": 6.63, "order_date": "2023-01-06", "order_total": 27969.59, "order_total_count": 554, "risk_score_count": 554, "risk_score": 2.6, "city": "Provence-Alpes-Cote d'Azur", "country": "FR"}, {"lat": 51.24, "lon": -3.0, "order_date": "2023-01-06", "order_total": 11058.83, "order_total_count": 616, "risk_score_count": 616, "risk_score": 2.52, "city": "England", "country": "GB"}, {"lat": 18.0, "lon": -92.9833, "order_date": "2023-01-06", "order_total": 23114.45, "order_total_count": 25, "risk_score_count": 25, "risk_score": 1.32, "city": "Tabasco", "country": "MX"}, {"lat": 1.3167, "lon": 36.8, "order_date": "2023-01-06", "order_total": 26368.82, "order_total_count": 24, "risk_score_count": 24, "risk_score": 2.08, "city": "Samburu", "country": "KE"}, {"lat": 53.58, "lon": 10.02, "order_date": "2023-01-06", "order_total": 148257.55, "order_total_count": 1692, "risk_score_count": 1692, "risk_score": 2.07, "city": "Hamburg", "country": "DE"}, {"lat": 28.15, "lon": -15.65, "order_date": "2023-01-06", "order_total": 1364.37, "order_total_count": 74, "risk_score_count": 74, "risk_score": 2.14, "city": "Canary Islands", "country": "ES"}, {"lat": 37.4692, "lon": 126.4506, "order_date": "2023-01-06", "order_total": 25130.14, "order_total_count": 35, "risk_score_count": 35, "risk_score": 2.31, "city": "Incheon", "country": "KR"}, {"lat": 48.9, "lon": 2.26, "order_date": "2023-01-06", "order_total": 54321.54, "order_total_count": 2286, "risk_score_count": 2286, "risk_score": 2.32, "city": "Ile-de-France", "country": "FR"}, {"lat": 51.18, "lon": 6.87, "order_date": "2023-01-06", "order_total": 370218.85, "order_total_count": 3609, "risk_score_count": 3609, "risk_score": 2.05, "city": "North Rhine-Westphalia", "country": "DE"}, {"lat": 47.7, "lon": 16.03, "order_date": "2023-01-06", "order_total": 51378.61, "order_total_count": 476, "risk_score_count": 476, "risk_score": 2.17, "city": "Lower Austria", "country": "AT"}, {"lat": -33.5597, "lon": -70.7, "order_date": "2023-01-06", "order_total": 20605.37, "order_total_count": 22, "risk_score_count": 22, "risk_score": 2.0, "city": "Santiago Metropolitan", "country": "CL"}, {"lat": -13.8333, "lon": -172.0, "order_date": "2023-01-06", "order_total": 6856.13, "order_total_count": 8, "risk_score_count": 8, "risk_score": 1.75, "city": "A'ana", "country": "WS"}, {"lat": 38.66896, "lon": -77.02311, "order_date": "2023-01-06", "order_total": 262916.32, "order_total_count": 735, "risk_score_count": 314, "risk_score": 1.06, "city": "Maryland", "country": "US"}, {"lat": 1.47, "lon": 103.76, "order_date": "2023-01-06", "order_total": 17527.9, "order_total_count": 265, "risk_score_count": 265, "risk_score": 2.95, "city": "Johor", "country": "MY"}, {"lat": 30.73, "lon": 31.8, "order_date": "2023-01-06", "order_total": 35622.94, "order_total_count": 70, "risk_score_count": 70, "risk_score": 1.89, "city": "Eastern Province", "country": "EG"}, {"lat": -4.54, "lon": 120.33, "order_date": "2023-01-06", "order_total": 308.95, "order_total_count": 253, "risk_score_count": 253, "risk_score": 3.6, "city": "South Sulawesi", "country": "ID"}, {"lat": 20.9933, "lon": -101.4808, "order_date": "2023-01-06", "order_total": 87852.96, "order_total_count": 116, "risk_score_count": 116, "risk_score": 1.24, "city": "Guanajuato", "country": "MX"}, {"lat": 42.71829, "lon": -71.16079, "order_date": "2023-01-06", "order_total": 168945.14, "order_total_count": 600, "risk_score_count": 188, "risk_score": 1.09, "city": "Massachusetts", "country": "US"}, {"lat": 44.78, "lon": -0.46, "order_date": "2023-01-06", "order_total": 7570.82, "order_total_count": 379, "risk_score_count": 379, "risk_score": 2.19, "city": "Aquitaine", "country": "FR"}, {"lat": 51.96, "lon": 5.76, "order_date": "2023-01-06", "order_total": 387754.55, "order_total_count": 3375, "risk_score_count": 3375, "risk_score": 1.17, "city": "Gelderland", "country": "NL"}, {"lat": 18.5, "lon": -77.9167, "order_date": "2023-01-06", "order_total": 36203.35, "order_total_count": 63, "risk_score_count": 63, "risk_score": 1.24, "city": "Saint James", "country": "JM"}, {"lat": 36.78164, "lon": -90.434, "order_date": "2023-01-06", "order_total": 66025.0, "order_total_count": 355, "risk_score_count": 70, "risk_score": 1.09, "city": "Missouri", "country": "US"}, {"lat": 30.7703, "lon": -89.64426, "order_date": "2023-01-06", "order_total": 60739.77, "order_total_count": 306, "risk_score_count": 94, "risk_score": 1.09, "city": "Mississippi", "country": "US"}, {"lat": 22.2, "lon": 113.55, "order_date": "2023-01-06", "order_total": 11185.27, "order_total_count": 47, "risk_score_count": 47, "risk_score": 3.04, "city": "Macau", "country": "MO"}, {"lat": 33.78898, "lon": -117.90336, "order_date": "2023-01-06", "order_total": 296518.26, "order_total_count": 862, "risk_score_count": 452, "risk_score": 1.11, "city": "California", "country": "US"}, {"lat": 21.27, "lon": 40.42, "order_date": "2023-01-06", "order_total": 7155.69, "order_total_count": 62, "risk_score_count": 62, "risk_score": 2.34, "city": "Makkah", "country": "SA"}, {"lat": 19.0886, "lon": 72.8681, "order_date": "2023-01-06", "order_total": 76249.89, "order_total_count": 46, "risk_score_count": 46, "risk_score": 1.61, "city": "Maharashtra", "country": "IN"}, {"lat": 48.1953, "lon": -114.3261, "order_date": "2023-01-06", "order_total": 70141.29, "order_total_count": 181, "risk_score_count": 61, "risk_score": 1.31, "city": "Montana", "country": "US"}, {"lat": 53.2, "lon": -1.87, "order_date": "2023-01-06", "order_total": 39229.72, "order_total_count": 1919, "risk_score_count": 1919, "risk_score": 2.59, "city": "England", "country": "GB"}, {"lat": 29.31435, "lon": -98.39006, "order_date": "2023-01-06", "order_total": 107577.97, "order_total_count": 399, "risk_score_count": 158, "risk_score": 1.07, "city": "Texas", "country": "US"}, {"lat": 41.49909, "lon": -83.19366, "order_date": "2023-01-06", "order_total": 150965.52, "order_total_count": 649, "risk_score_count": 187, "risk_score": 1.11, "city": "Ohio", "country": "US"}, {"lat": 41.7715, "lon": -111.82213, "order_date": "2023-01-06", "order_total": 33805.95, "order_total_count": 181, "risk_score_count": 36, "risk_score": 1.06, "city": "Utah", "country": "US"}, {"lat": -23.0075, "lon": -47.1344, "order_date": "2023-01-06", "order_total": 25703.12, "order_total_count": 50, "risk_score_count": 50, "risk_score": 1.38, "city": "Sao Paulo", "country": "BR"}, {"lat": 52.24, "lon": 8.92, "order_date": "2023-01-06", "order_total": 132118.08, "order_total_count": 1467, "risk_score_count": 1467, "risk_score": 2.09, "city": "North Rhine-Westphalia", "country": "DE"}, {"lat": 39.22, "lon": 34.85, "order_date": "2023-01-06", "order_total": 16164.24, "order_total_count": 145, "risk_score_count": 145, "risk_score": 2.5, "city": "Nevsehir", "country": "TR"}, {"lat": -26.1392, "lon": 28.2461, "order_date": "2023-01-06", "order_total": 9941.07, "order_total_count": 7, "risk_score_count": 7, "risk_score": 2.14, "city": "Gauteng", "country": "ZA"}, {"lat": 33.15819, "lon": -111.55635, "order_date": "2023-01-06", "order_total": 120852.49, "order_total_count": 408, "risk_score_count": 180, "risk_score": 1.12, "city": "Arizona", "country": "US"}, {"lat": 41.69157, "lon": -91.57538, "order_date": "2023-01-06", "order_total": 33914.34, "order_total_count": 157, "risk_score_count": 27, "risk_score": 1.0, "city": "Iowa", "country": "US"}, {"lat": 35.80758, "lon": -79.03739, "order_date": "2023-01-06", "order_total": 77347.23, "order_total_count": 344, "risk_score_count": 86, "risk_score": 1.06, "city": "North Carolina", "country": "US"}, {"lat": 0.91, "lon": 123.31, "order_date": "2023-01-06", "order_total": 11051.84, "order_total_count": 126, "risk_score_count": 126, "risk_score": 3.44, "city": "North Sulawesi", "country": "ID"}, {"lat": 10.63, "lon": -61.38, "order_date": "2023-01-06", "order_total": 63549.04, "order_total_count": 88, "risk_score_count": 88, "risk_score": 1.19, "city": "Tunapuna/Piarco", "country": "TT"}, {"lat": 51.75, "lon": 19.47, "order_date": "2023-01-06", "order_total": 13422.96, "order_total_count": 285, "risk_score_count": 285, "risk_score": 2.18, "city": "Lodz Voivodeship", "country": "PL"}, {"lat": 51.55, "lon": -0.48, "order_date": "2023-01-06", "order_total": 64603.91, "order_total_count": 1466, "risk_score_count": 1466, "risk_score": 2.6, "city": "England", "country": "GB"}, {"lat": -31.9403, "lon": 115.9669, "order_date": "2023-01-06", "order_total": 14406.94, "order_total_count": 9, "risk_score_count": 8, "risk_score": 1.0, "city": "Western Australia", "country": "AU"}, {"lat": -0.03, "lon": 109.33, "order_date": "2023-01-06", "order_total": 243.14, "order_total_count": 201, "risk_score_count": 201, "risk_score": 3.19, "city": "West Kalimantan", "country": "ID"}, {"lat": 14.3825, "lon": -87.6211, "order_date": "2023-01-06", "order_total": 108926.4, "order_total_count": 169, "risk_score_count": 169, "risk_score": 1.2, "city": "La Paz", "country": "HN"}, {"lat": 18.28, "lon": 99.65, "order_date": "2023-01-06", "order_total": 4142.49, "order_total_count": 124, "risk_score_count": 124, "risk_score": 2.9, "city": "Lampang", "country": "TH"}, {"lat": 28.5658, "lon": -81.72897, "order_date": "2023-01-06", "order_total": 196117.23, "order_total_count": 689, "risk_score_count": 410, "risk_score": 1.03, "city": "Florida", "country": "US"}, {"lat": 49.66, "lon": 8.45, "order_date": "2023-01-06", "order_total": 206400.88, "order_total_count": 2153, "risk_score_count": 2153, "risk_score": 2.07, "city": "Hesse", "country": "DE"}, {"lat": 24.9578, "lon": 46.6989, "order_date": "2023-01-06", "order_total": 22663.31, "order_total_count": 111, "risk_score_count": 111, "risk_score": 2.4, "city": "Ar Riyad", "country": "SA"}, {"lat": 5.72, "lon": 116.4, "order_date": "2023-01-06", "order_total": 128.37, "order_total_count": 68, "risk_score_count": 68, "risk_score": 2.59, "city": "Sabah", "country": "MY"}, {"lat": -7.53, "lon": 110.6, "order_date": "2023-01-06", "order_total": 1121.95, "order_total_count": 1551, "risk_score_count": 1551, "risk_score": 3.73, "city": "Central Java", "country": "ID"}, {"lat": -8.54, "lon": 115.33, "order_date": "2023-01-06", "order_total": 1228.41, "order_total_count": 375, "risk_score_count": 375, "risk_score": 3.65, "city": "Bali", "country": "ID"}, {"lat": 45.47, "lon": 4.53, "order_date": "2023-01-06", "order_total": 7936.81, "order_total_count": 430, "risk_score_count": 430, "risk_score": 2.1, "city": "Rhone-Alpes", "country": "FR"}, {"lat": 37.92, "lon": 40.22, "order_date": "2023-01-06", "order_total": 1428.63, "order_total_count": 133, "risk_score_count": 133, "risk_score": 2.55, "city": "Diyarbakir", "country": "TR"}, {"lat": 22.6333, "lon": 88.4333, "order_date": "2023-01-06", "order_total": 58008.48, "order_total_count": 33, "risk_score_count": 33, "risk_score": 1.82, "city": "West Bengal", "country": "IN"}, {"lat": 46.99, "lon": 6.93, "order_date": "2023-01-06", "order_total": 71408.52, "order_total_count": 913, "risk_score_count": 913, "risk_score": 1.99, "city": "Neuchatel", "country": "CH"}, {"lat": -20.88, "lon": 55.45, "order_date": "2023-01-06", "order_total": 201.15, "order_total_count": 5, "risk_score_count": 5, "risk_score": 2.0, "city": "Reunion", "country": "RE"}, {"lat": -7.25, "lon": -39.14, "order_date": "2023-01-06", "order_total": 1699.27, "order_total_count": 9, "risk_score_count": 9, "risk_score": 1.78, "city": "Ceara", "country": "BR"}, {"lat": 25.0778, "lon": 121.2239, "order_date": "2023-01-06", "order_total": 19943.44, "order_total_count": 41, "risk_score_count": 41, "risk_score": 2.63, "city": "Taiwan", "country": "TW"}, {"lat": 52.08, "lon": 4.75, "order_date": "2023-01-06", "order_total": 656515.6, "order_total_count": 6057, "risk_score_count": 6057, "risk_score": 1.13, "city": "South Holland", "country": "NL"}, {"lat": 59.74, "lon": 10.2, "order_date": "2023-01-06", "order_total": 193596.85, "order_total_count": 152, "risk_score_count": 152, "risk_score": 1.42, "city": "Buskerud", "country": "NO"}, {"lat": -5.55, "lon": 138.14, "order_date": "2023-01-06", "order_total": 4177.46, "order_total_count": 44, "risk_score_count": 44, "risk_score": 2.93, "city": "Papua", "country": "ID"}, {"lat": 43.92, "lon": 23.07, "order_date": "2023-01-06", "order_total": 21919.09, "order_total_count": 108, "risk_score_count": 108, "risk_score": 1.9, "city": "Dolj", "country": "RO"}, {"lat": -4.27, "lon": 15.28, "order_date": "2023-01-06", "order_total": 2250.88, "order_total_count": 15, "risk_score_count": 15, "risk_score": 2.2, "city": "Brazzaville", "country": "CG"}, {"lat": -2.92, "lon": 104.75, "order_date": "2023-01-06", "order_total": 164.87, "order_total_count": 292, "risk_score_count": 292, "risk_score": 3.54, "city": "South Sumatra", "country": "ID"}, {"lat": 10.1519, "lon": 76.4019, "order_date": "2023-01-06", "order_total": 37986.69, "order_total_count": 23, "risk_score_count": 23, "risk_score": 1.65, "city": "Kerala", "country": "IN"}, {"lat": 44.8808, "lon": -63.5086, "order_date": "2023-01-06", "order_total": 27003.52, "order_total_count": 32, "risk_score_count": 26, "risk_score": 1.27, "city": "Nova Scotia", "country": "CA"}, {"lat": 30.13644, "lon": -95.1779, "order_date": "2023-01-06", "order_total": 135465.65, "order_total_count": 456, "risk_score_count": 220, "risk_score": 1.06, "city": "Texas", "country": "US"}, {"lat": 38.49154, "lon": -95.08858, "order_date": "2023-01-06", "order_total": 87750.12, "order_total_count": 368, "risk_score_count": 90, "risk_score": 1.11, "city": "Kansas", "country": "US"}, {"lat": 13.4839, "lon": 144.7972, "order_date": "2023-01-06", "order_total": 4879.48, "order_total_count": 7, "risk_score_count": 3, "risk_score": 1.0, "city": "Barrigada", "country": "GU"}, {"lat": -17.75, "lon": 177.45, "order_date": "2023-01-06", "order_total": 7168.94, "order_total_count": 8, "risk_score_count": 8, "risk_score": 1.25, "city": "Western", "country": "FJ"}, {"lat": 38.42327, "lon": -85.35929, "order_date": "2023-01-06", "order_total": 111668.31, "order_total_count": 526, "risk_score_count": 132, "risk_score": 1.1, "city": "Kentucky", "country": "US"}, {"lat": 38.61, "lon": -0.13, "order_date": "2023-01-06", "order_total": 4577.65, "order_total_count": 145, "risk_score_count": 145, "risk_score": 2.07, "city": "Valencia", "country": "ES"}, {"lat": -0.53, "lon": 101.58, "order_date": "2023-01-06", "order_total": 431.13, "order_total_count": 250, "risk_score_count": 250, "risk_score": 3.54, "city": "Riau", "country": "ID"}, {"lat": 58.38, "lon": 26.73, "order_date": "2023-01-06", "order_total": 9416.31, "order_total_count": 47, "risk_score_count": 47, "risk_score": 2.0, "city": "Tartu", "country": "EE"}, {"lat": 40.5798, "lon": -75.54099, "order_date": "2023-01-06", "order_total": 116331.23, "order_total_count": 575, "risk_score_count": 181, "risk_score": 1.03, "city": "Pennsylvania", "country": "US"}, {"lat": -0.5, "lon": 117.15, "order_date": "2023-01-06", "order_total": 374.59, "order_total_count": 313, "risk_score_count": 313, "risk_score": 3.56, "city": "East Kalimantan", "country": "ID"}, {"lat": 44.91192, "lon": -122.95649, "order_date": "2023-01-06", "order_total": 51904.11, "order_total_count": 229, "risk_score_count": 64, "risk_score": 1.03, "city": "Oregon", "country": "US"}, {"lat": 18.4297, "lon": -69.6689, "order_date": "2023-01-06", "order_total": 58548.96, "order_total_count": 96, "risk_score_count": 96, "risk_score": 1.5, "city": "Santo Domingo", "country": "DO"}, {"lat": 34.05, "lon": 73.17, "order_date": "2023-01-06", "order_total": 29520.37, "order_total_count": 31, "risk_score_count": 31, "risk_score": 2.39, "city": "Khyber Pakhtunkhwa", "country": "PK"}, {"lat": 0.1333, "lon": -78.4833, "order_date": "2023-01-06", "order_total": 57845.1, "order_total_count": 61, "risk_score_count": 61, "risk_score": 1.85, "city": "Imbabura", "country": "EC"}, {"lat": -25.6833, "lon": -54.45, "order_date": "2023-01-06", "order_total": 10698.58, "order_total_count": 17, "risk_score_count": 17, "risk_score": 1.47, "city": "Misiones", "country": "AR"}, {"lat": 51.31, "lon": 13.29, "order_date": "2023-01-06", "order_total": 180665.39, "order_total_count": 1392, "risk_score_count": 1392, "risk_score": 2.03, "city": "Saxony", "country": "DE"}, {"lat": 7.89, "lon": 98.4, "order_date": "2023-01-06", "order_total": 1402.67, "order_total_count": 205, "risk_score_count": 205, "risk_score": 3.29, "city": "Phuket", "country": "TH"}, {"lat": -37.6733, "lon": 144.8433, "order_date": "2023-01-06", "order_total": 10603.19, "order_total_count": 17, "risk_score_count": 16, "risk_score": 1.94, "city": "Victoria", "country": "AU"}, {"lat": 48.7, "lon": 9.65, "order_date": "2023-01-06", "order_total": 82001.64, "order_total_count": 987, "risk_score_count": 987, "risk_score": 2.1, "city": "Baden-Wuerttemberg", "country": "DE"}, {"lat": 42.51, "lon": 2.79, "order_date": "2023-01-06", "order_total": 7727.37, "order_total_count": 273, "risk_score_count": 273, "risk_score": 2.1, "city": "Languedoc-Roussillon", "country": "FR"}, {"lat": 34.20682, "lon": -81.28459, "order_date": "2023-01-06", "order_total": 91101.41, "order_total_count": 414, "risk_score_count": 104, "risk_score": 1.0, "city": "South Carolina", "country": "US"}, {"lat": -34.6, "lon": -58.38, "order_date": "2023-01-06", "order_total": 23051.46, "order_total_count": 22, "risk_score_count": 22, "risk_score": 1.86, "city": "Buenos Aires F.D.", "country": "AR"}, {"lat": 16.06, "lon": 103.65, "order_date": "2023-01-06", "order_total": 47791.7, "order_total_count": 251, "risk_score_count": 251, "risk_score": 2.76, "city": "Roi Et", "country": "TH"}, {"lat": 48.13, "lon": -2.03, "order_date": "2023-01-06", "order_total": 5748.0, "order_total_count": 274, "risk_score_count": 274, "risk_score": 2.11, "city": "Brittany", "country": "FR"}, {"lat": 50.15, "lon": 11.06, "order_date": "2023-01-06", "order_total": 71901.49, "order_total_count": 921, "risk_score_count": 921, "risk_score": 2.1, "city": "Bavaria", "country": "DE"}, {"lat": -7.04, "lon": 107.91, "order_date": "2023-01-06", "order_total": 1198.29, "order_total_count": 1585, "risk_score_count": 1585, "risk_score": 3.81, "city": "West Java", "country": "ID"}]
