[{"lat": 48.02, "lon": -1.75, "order_date": "2023-01-02", "order_total": 7676.28, "order_total_count": 398, "risk_score_count": 398, "risk_score": 2.13, "city": "Brittany", "country": "FR"}, {"lat": 0, "lon": 0, "order_date": "2023-01-02", "order_total": 10994713.91, "order_total_count": 187997, "risk_score_count": 187997, "risk_score": 1.44, "city": "Western", "country": "GH"}, {"lat": 36.76654, "lon": -96.89094, "order_date": "2023-01-02", "order_total": 38810.18, "order_total_count": 255, "risk_score_count": 30, "risk_score": 1.0, "city": "Oklahoma", "country": "US"}, {"lat": -7.04, "lon": 107.91, "order_date": "2023-01-02", "order_total": 1381.21, "order_total_count": 1490, "risk_score_count": 1490, "risk_score": 3.82, "city": "West Java", "country": "ID"}, {"lat": 40.85583, "lon": -74.35053, "order_date": "2023-01-02", "order_total": 589101.02, "order_total_count": 1873, "risk_score_count": 811, "risk_score": 1.17, "city": "New Jersey", "country": "US"}, {"lat": 48.19, "lon": 11.64, "order_date": "2023-01-02", "order_total": 1651521.08, "order_total_count": 9883, "risk_score_count": 9883, "risk_score": 2.04, "city": "Bavaria", "country": "DE"}, {"lat": 19.12, "lon": 98.94, "order_date": "2023-01-02", "order_total": 26225.81, "order_total_count": 124, "risk_score_count": 124, "risk_score": 2.87, "city": "Chiang Mai", "country": "TH"}, {"lat": 37.58, "lon": 38.47, "order_date": "2023-01-02", "order_total": 6760.51, "order_total_count": 232, "risk_score_count": 232, "risk_score": 2.45, "city": "Adiyaman", "country": "TR"}, {"lat": 33.04303, "lon": -117.06101, "order_date": "2023-01-02", "order_total": 53339.02, "order_total_count": 264, "risk_score_count": 89, "risk_score": 1.04, "city": "California", "country": "US"}, {"lat": 26.04894, "lon": -80.3077, "order_date": "2023-01-02", "order_total": 210031.86, "order_total_count": 614, "risk_score_count": 429, "risk_score": 1.09, "city": "Florida", "country": "US"}, {"lat": 52.51, "lon": 6.26, "order_date": "2023-01-02", "order_total": 273905.16, "order_total_count": 2381, "risk_score_count": 2381, "risk_score": 1.26, "city": "Overijssel", "country": "NL"}, {"lat": -30.64, "lon": -65.39, "order_date": "2023-01-02", "order_total": 27814.95, "order_total_count": 29, "risk_score_count": 29, "risk_score": 1.9, "city": "Cordoba", "country": "AR"}, {"lat": 14.21, "lon": 121.17, "order_date": "2023-01-02", "order_total": 170112.44, "order_total_count": 145, "risk_score_count": 145, "risk_score": 1.73, "city": "Calabarzon", "country": "PH"}, {"lat": -16.8833, "lon": 145.75, "order_date": "2023-01-02", "order_total": 5551.17, "order_total_count": 8, "risk_score_count": 8, "risk_score": 1.5, "city": "Queensland", "country": "AU"}, {"lat": 51.5, "lon": 10.8, "order_date": "2023-01-02", "order_total": 84494.05, "order_total_count": 1071, "risk_score_count": 1071, "risk_score": 2.1, "city": "Thuringia", "country": "DE"}, {"lat": 41.98279, "lon": -87.65671, "order_date": "2023-01-02", "order_total": 216374.27, "order_total_count": 796, "risk_score_count": 262, "risk_score": 1.03, "city": "Illinois", "country": "US"}, {"lat": 21.29804, "lon": -157.67568, "order_date": "2023-01-02", "order_total": 20262.31, "order_total_count": 62, "risk_score_count": 33, "risk_score": 1.15, "city": "Hawaii", "country": "US"}, {"lat": 46.37387, "lon": -116.97391, "order_date": "2023-01-02", "order_total": 36819.12, "order_total_count": 193, "risk_score_count": 33, "risk_score": 1.0, "city": "Idaho", "country": "US"}, {"lat": 29.08, "lon": 48.08, "order_date": "2023-01-02", "order_total": 53077.26, "order_total_count": 104, "risk_score_count": 104, "risk_score": 2.3, "city": "Al Ahmadi", "country": "KW"}, {"lat": -8.54, "lon": 115.33, "order_date": "2023-01-02", "order_total": 1234.25, "order_total_count": 368, "risk_score_count": 368, "risk_score": 3.68, "city": "Bali", "country": "ID"}, {"lat": 30.08929, "lon": -95.26024, "order_date": "2023-01-02", "order_total": 154738.17, "order_total_count": 544, "risk_score_count": 216, "risk_score": 1.11, "city": "Texas", "country": "US"}, {"lat": 0.99, "lon": 102.71, "order_date": "2023-01-02", "order_total": 21437.62, "order_total_count": 603, "risk_score_count": 603, "risk_score": 3.03, "city": "Riau", "country": "ID"}, {"lat": 17.9833, "lon": -66.4, "order_date": "2023-01-02", "order_total": 112553.76, "order_total_count": 219, "risk_score_count": 210, "risk_score": 1.32, "city": "Santa Isabel Municipio", "country": "PR"}, {"lat": 42.55, "lon": 2.39, "order_date": "2023-01-02", "order_total": 7212.59, "order_total_count": 327, "risk_score_count": 327, "risk_score": 2.13, "city": "Languedoc-Roussillon", "country": "FR"}, {"lat": 31.33, "lon": 75.58, "order_date": "2023-01-02", "order_total": 116839.34, "order_total_count": 96, "risk_score_count": 96, "risk_score": 2.09, "city": "Punjab", "country": "IN"}, {"lat": 40.77, "lon": 29.92, "order_date": "2023-01-02", "order_total": 19487.97, "order_total_count": 312, "risk_score_count": 312, "risk_score": 2.59, "city": "Kocaeli", "country": "TR"}, {"lat": 35.15545, "lon": -81.44165, "order_date": "2023-01-02", "order_total": 76644.13, "order_total_count": 512, "risk_score_count": 86, "risk_score": 1.09, "city": "South Carolina", "country": "US"}, {"lat": 47.13, "lon": 7.24, "order_date": "2023-01-02", "order_total": 87038.5, "order_total_count": 967, "risk_score_count": 967, "risk_score": 2.02, "city": "Bern", "country": "CH"}, {"lat": 61.60238, "lon": -149.11845, "order_date": "2023-01-02", "order_total": 10486.26, "order_total_count": 46, "risk_score_count": 11, "risk_score": 1.36, "city": "Alaska", "country": "US"}, {"lat": 48.21, "lon": 16.37, "order_date": "2023-01-02", "order_total": 53867.45, "order_total_count": 472, "risk_score_count": 472, "risk_score": 2.13, "city": "Vienna", "country": "AT"}, {"lat": 9.9939, "lon": -84.2089, "order_date": "2023-01-02", "order_total": 56094.57, "order_total_count": 47, "risk_score_count": 47, "risk_score": 1.6, "city": "Alajuela", "country": "CR"}, {"lat": 35.75, "lon": 139.47, "order_date": "2023-01-02", "order_total": 41922.74, "order_total_count": 76, "risk_score_count": 76, "risk_score": 3.04, "city": "Tokyo", "country": "JP"}, {"lat": 13.73, "lon": 100.59, "order_date": "2023-01-02", "order_total": 17895.15, "order_total_count": 804, "risk_score_count": 804, "risk_score": 2.96, "city": "Bangkok", "country": "TH"}, {"lat": -39.9667, "lon": 175.0167, "order_date": "2023-01-02", "order_total": 16235.66, "order_total_count": 24, "risk_score_count": 24, "risk_score": 1.58, "city": "Manawatu-Wanganui", "country": "NZ"}, {"lat": 52.4, "lon": 13.06, "order_date": "2023-01-02", "order_total": 528014.18, "order_total_count": 3378, "risk_score_count": 3378, "risk_score": 2.06, "city": "Brandenburg", "country": "DE"}, {"lat": 1.33, "lon": 124.84, "order_date": "2023-01-02", "order_total": 9941.78, "order_total_count": 126, "risk_score_count": 126, "risk_score": 3.52, "city": "North Sulawesi", "country": "ID"}, {"lat": 37.38, "lon": -5.98, "order_date": "2023-01-02", "order_total": 11110.8, "order_total_count": 144, "risk_score_count": 144, "risk_score": 2.12, "city": "Andalusia", "country": "ES"}, {"lat": 51.64, "lon": -2.68, "order_date": "2023-01-02", "order_total": 20661.6, "order_total_count": 1048, "risk_score_count": 1048, "risk_score": 2.58, "city": "Wales", "country": "GB"}, {"lat": -23.4319, "lon": -46.4694, "order_date": "2023-01-02", "order_total": 19295.1, "order_total_count": 61, "risk_score_count": 61, "risk_score": 1.61, "city": "Sao Paulo", "country": "BR"}, {"lat": 48.83, "lon": 2.25, "order_date": "2023-01-02", "order_total": 62141.63, "order_total_count": 2284, "risk_score_count": 2284, "risk_score": 2.23, "city": "Ile-de-France", "country": "FR"}, {"lat": 25.26, "lon": 55.3, "order_date": "2023-01-02", "order_total": 27392.07, "order_total_count": 314, "risk_score_count": 314, "risk_score": 2.52, "city": "Ash Shariqah", "country": "AE"}, {"lat": 40.42205, "lon": -120.65959, "order_date": "2023-01-02", "order_total": 21326.96, "order_total_count": 122, "risk_score_count": 17, "risk_score": 1.18, "city": "California", "country": "US"}, {"lat": 41.50775, "lon": -82.95116, "order_date": "2023-01-02", "order_total": 136602.09, "order_total_count": 694, "risk_score_count": 165, "risk_score": 1.07, "city": "Ohio", "country": "US"}, {"lat": 39.90719, "lon": -105.05758, "order_date": "2023-01-02", "order_total": 99860.74, "order_total_count": 472, "risk_score_count": 158, "risk_score": 1.09, "city": "Colorado", "country": "US"}, {"lat": 46.70327, "lon": -98.65911, "order_date": "2023-01-02", "order_total": 23345.65, "order_total_count": 100, "risk_score_count": 13, "risk_score": 1.38, "city": "North Dakota", "country": "US"}, {"lat": -0.5, "lon": 117.15, "order_date": "2023-01-02", "order_total": 251.64, "order_total_count": 227, "risk_score_count": 227, "risk_score": 3.7, "city": "East Kalimantan", "country": "ID"}, {"lat": 49.63, "lon": 8.63, "order_date": "2023-01-02", "order_total": 266439.12, "order_total_count": 2916, "risk_score_count": 2916, "risk_score": 2.1, "city": "Hesse", "country": "DE"}, {"lat": -12.0219, "lon": -77.1144, "order_date": "2023-01-02", "order_total": 26007.54, "order_total_count": 40, "risk_score_count": 40, "risk_score": 1.68, "city": "Callao", "country": "PE"}, {"lat": 33.32255, "lon": -111.7514, "order_date": "2023-01-02", "order_total": 81215.92, "order_total_count": 381, "risk_score_count": 140, "risk_score": 1.08, "city": "Arizona", "country": "US"}, {"lat": 51.54, "lon": -0.1, "order_date": "2023-01-02", "order_total": 72510.8, "order_total_count": 1951, "risk_score_count": 1951, "risk_score": 2.6, "city": "England", "country": "GB"}, {"lat": 29.97823, "lon": -98.10032, "order_date": "2023-01-02", "order_total": 93699.28, "order_total_count": 414, "risk_score_count": 139, "risk_score": 1.11, "city": "Texas", "country": "US"}, {"lat": -7.33, "lon": 110.49, "order_date": "2023-01-02", "order_total": 1449.32, "order_total_count": 1677, "risk_score_count": 1677, "risk_score": 3.82, "city": "Central Java", "country": "ID"}, {"lat": 40.55, "lon": -3.64, "order_date": "2023-01-02", "order_total": 21519.54, "order_total_count": 409, "risk_score_count": 409, "risk_score": 2.04, "city": "Madrid", "country": "ES"}, {"lat": 35.82, "lon": 128.73, "order_date": "2023-01-02", "order_total": 26544.35, "order_total_count": 45, "risk_score_count": 45, "risk_score": 2.76, "city": "Gyeongsangbuk-do", "country": "KR"}, {"lat": 59.82, "lon": 10.46, "order_date": "2023-01-02", "order_total": 301407.78, "order_total_count": 269, "risk_score_count": 269, "risk_score": 1.33, "city": "Akershus", "country": "NO"}, {"lat": 31.26, "lon": 32.28, "order_date": "2023-01-02", "order_total": 66022.94, "order_total_count": 120, "risk_score_count": 120, "risk_score": 2.33, "city": "Muhafazat Bur Sa`id", "country": "EG"}, {"lat": 31.1783, "lon": -82.26691, "order_date": "2023-01-02", "order_total": 40006.16, "order_total_count": 246, "risk_score_count": 42, "risk_score": 1.02, "city": "Georgia", "country": "US"}, {"lat": 46.57945, "lon": -122.33314, "order_date": "2023-01-02", "order_total": 133625.91, "order_total_count": 565, "risk_score_count": 136, "risk_score": 1.11, "city": "Washington", "country": "US"}, {"lat": 26.36074, "lon": -98.08546, "order_date": "2023-01-02", "order_total": 35414.87, "order_total_count": 113, "risk_score_count": 44, "risk_score": 1.09, "city": "Texas", "country": "US"}, {"lat": 51.92, "lon": 4.48, "order_date": "2023-01-02", "order_total": 357661.69, "order_total_count": 3265, "risk_score_count": 3265, "risk_score": 1.16, "city": "South Holland", "country": "NL"}, {"lat": -1.28, "lon": 36.82, "order_date": "2023-01-02", "order_total": 19801.82, "order_total_count": 26, "risk_score_count": 26, "risk_score": 1.54, "city": "Nairobi Area", "country": "KE"}, {"lat": 60.72, "lon": 24.86, "order_date": "2023-01-02", "order_total": 6766.03, "order_total_count": 55, "risk_score_count": 55, "risk_score": 1.89, "city": "Haeme", "country": "FI"}, {"lat": 18.5833, "lon": 73.9167, "order_date": "2023-01-02", "order_total": 89206.59, "order_total_count": 56, "risk_score_count": 56, "risk_score": 2.09, "city": "Maharashtra", "country": "IN"}, {"lat": 3.16, "lon": 98.51, "order_date": "2023-01-02", "order_total": 543.13, "order_total_count": 557, "risk_score_count": 557, "risk_score": 3.7, "city": "North Sumatra", "country": "ID"}, {"lat": 39.01388, "lon": -85.05196, "order_date": "2023-01-02", "order_total": 91024.97, "order_total_count": 571, "risk_score_count": 105, "risk_score": 1.12, "city": "Indiana", "country": "US"}, {"lat": -33.87, "lon": 151.21, "order_date": "2023-01-02", "order_total": 52901.74, "order_total_count": 53, "risk_score_count": 52, "risk_score": 1.54, "city": "New South Wales", "country": "AU"}, {"lat": 0.1333, "lon": -78.4833, "order_date": "2023-01-02", "order_total": 45546.99, "order_total_count": 56, "risk_score_count": 56, "risk_score": 1.8, "city": "Imbabura", "country": "EC"}, {"lat": -13.8333, "lon": -172.0, "order_date": "2023-01-02", "order_total": 5828.22, "order_total_count": 8, "risk_score_count": 8, "risk_score": 2.12, "city": "A'ana", "country": "WS"}, {"lat": 42.80297, "lon": -71.13143, "order_date": "2023-01-02", "order_total": 182395.36, "order_total_count": 747, "risk_score_count": 206, "risk_score": 1.2, "city": "New Hampshire", "country": "US"}, {"lat": 36.93398, "lon": -90.74568, "order_date": "2023-01-02", "order_total": 66982.0, "order_total_count": 377, "risk_score_count": 64, "risk_score": 1.14, "city": "Missouri", "country": "US"}, {"lat": 38.7557, "lon": -76.97982, "order_date": "2023-01-02", "order_total": 255598.52, "order_total_count": 987, "risk_score_count": 274, "risk_score": 1.05, "city": "Maryland", "country": "US"}, {"lat": -15.78, "lon": -47.93, "order_date": "2023-01-02", "order_total": 2155.27, "order_total_count": 6, "risk_score_count": 6, "risk_score": 1.67, "city": "Federal District", "country": "BR"}, {"lat": -7.68, "lon": 112.62, "order_date": "2023-01-02", "order_total": 2546.44, "order_total_count": 1576, "risk_score_count": 1576, "risk_score": 3.72, "city": "East Java", "country": "ID"}, {"lat": 37.722, "lon": -121.71907, "order_date": "2023-01-02", "order_total": 189984.47, "order_total_count": 604, "risk_score_count": 218, "risk_score": 1.15, "city": "California", "country": "US"}, {"lat": 44.08, "lon": 23.2, "order_date": "2023-01-02", "order_total": 33619.01, "order_total_count": 184, "risk_score_count": 184, "risk_score": 1.91, "city": "Dolj", "country": "RO"}, {"lat": 56.11, "lon": -3.75, "order_date": "2023-01-02", "order_total": 12871.02, "order_total_count": 440, "risk_score_count": 440, "risk_score": 2.46, "city": "Scotland", "country": "GB"}, {"lat": 30.63572, "lon": -90.5073, "order_date": "2023-01-02", "order_total": 37922.88, "order_total_count": 269, "risk_score_count": 48, "risk_score": 1.31, "city": "Louisiana", "country": "US"}, {"lat": 59.2, "lon": 17.63, "order_date": "2023-01-02", "order_total": 123383.24, "order_total_count": 175, "risk_score_count": 175, "risk_score": 1.79, "city": "Stockholm", "country": "SE"}, {"lat": -8.56, "lon": 125.57, "order_date": "2023-01-02", "order_total": 319.72, "order_total_count": 79, "risk_score_count": 79, "risk_score": 3.89, "city": "Dili", "country": "TL"}, {"lat": -0.03, "lon": 109.33, "order_date": "2023-01-02", "order_total": 163.82, "order_total_count": 156, "risk_score_count": 156, "risk_score": 3.5, "city": "West Kalimantan", "country": "ID"}, {"lat": 33.4167, "lon": -104.55, "order_date": "2023-01-02", "order_total": 37741.36, "order_total_count": 191, "risk_score_count": 49, "risk_score": 1.0, "city": "New Mexico", "country": "US"}, {"lat": 51.03, "lon": 5.7, "order_date": "2023-01-02", "order_total": 175082.93, "order_total_count": 1900, "risk_score_count": 1900, "risk_score": 1.53, "city": "Flanders", "country": "BE"}, {"lat": -31.9403, "lon": 115.9669, "order_date": "2023-01-02", "order_total": 7911.37, "order_total_count": 8, "risk_score_count": 7, "risk_score": 1.57, "city": "Western Australia", "country": "AU"}, {"lat": 53.69, "lon": 9.98, "order_date": "2023-01-02", "order_total": 240740.78, "order_total_count": 2361, "risk_score_count": 2361, "risk_score": 2.04, "city": "Schleswig-Holstein", "country": "DE"}, {"lat": 45.81, "lon": 5.08, "order_date": "2023-01-02", "order_total": 17196.53, "order_total_count": 485, "risk_score_count": 485, "risk_score": 2.09, "city": "Rhone-Alpes", "country": "FR"}, {"lat": -6.21, "lon": 106.85, "order_date": "2023-01-02", "order_total": 8377.94, "order_total_count": 5951, "risk_score_count": 5951, "risk_score": 3.77, "city": "Jakarta Raya", "country": "ID"}, {"lat": 54.81, "lon": -6.52, "order_date": "2023-01-02", "order_total": 8611.55, "order_total_count": 211, "risk_score_count": 211, "risk_score": 2.35, "city": "Northern Ireland", "country": "GB"}, {"lat": 10.65, "lon": -61.45, "order_date": "2023-01-02", "order_total": 21920.69, "order_total_count": 37, "risk_score_count": 37, "risk_score": 1.62, "city": "San Juan/Laventille", "country": "TT"}, {"lat": 52.27, "lon": -113.8, "order_date": "2023-01-02", "order_total": 55290.45, "order_total_count": 59, "risk_score_count": 49, "risk_score": 1.51, "city": "Alberta", "country": "CA"}, {"lat": 41.83492, "lon": -111.82715, "order_date": "2023-01-02", "order_total": 33447.05, "order_total_count": 230, "risk_score_count": 36, "risk_score": 1.11, "city": "Utah", "country": "US"}, {"lat": 51.38, "lon": 20.28, "order_date": "2023-01-02", "order_total": 13942.24, "order_total_count": 225, "risk_score_count": 225, "risk_score": 2.01, "city": "Lodz Voivodeship", "country": "PL"}, {"lat": -4.54, "lon": 120.33, "order_date": "2023-01-02", "order_total": 187.33, "order_total_count": 215, "risk_score_count": 215, "risk_score": 3.7, "city": "South Sulawesi", "country": "ID"}, {"lat": 29.88, "lon": 121.55, "order_date": "2023-01-02", "order_total": 15732.57, "order_total_count": 32, "risk_score_count": 32, "risk_score": 2.75, "city": "Zhejiang Sheng", "country": "CN"}, {"lat": -7.23, "lon": -35.88, "order_date": "2023-01-02", "order_total": 3819.86, "order_total_count": 23, "risk_score_count": 23, "risk_score": 1.83, "city": "Paraiba", "country": "BR"}, {"lat": -26.1392, "lon": 28.2461, "order_date": "2023-01-02", "order_total": 1956.49, "order_total_count": 5, "risk_score_count": 5, "risk_score": 2.0, "city": "Gauteng", "country": "ZA"}, {"lat": 32.92235, "lon": -96.96429, "order_date": "2023-01-02", "order_total": 111419.95, "order_total_count": 543, "risk_score_count": 150, "risk_score": 1.19, "city": "Texas", "country": "US"}, {"lat": 44.94838, "lon": -93.2521, "order_date": "2023-01-02", "order_total": 56684.44, "order_total_count": 339, "risk_score_count": 50, "risk_score": 1.1, "city": "Minnesota", "country": "US"}, {"lat": 19.7, "lon": -101.2, "order_date": "2023-01-02", "order_total": 85745.13, "order_total_count": 114, "risk_score_count": 114, "risk_score": 1.2, "city": "Michoacan", "country": "MX"}, {"lat": -2.88, "lon": 104.39, "order_date": "2023-01-02", "order_total": 387.26, "order_total_count": 312, "risk_score_count": 312, "risk_score": 3.74, "city": "South Sumatra", "country": "ID"}, {"lat": 52.13, "lon": 8.52, "order_date": "2023-01-02", "order_total": 97195.45, "order_total_count": 1237, "risk_score_count": 1237, "risk_score": 2.09, "city": "North Rhine-Westphalia", "country": "DE"}, {"lat": -5.55, "lon": 138.14, "order_date": "2023-01-02", "order_total": 797.95, "order_total_count": 15, "risk_score_count": 15, "risk_score": 3.27, "city": "Papua", "country": "ID"}, {"lat": 36.24332, "lon": -115.05693, "order_date": "2023-01-02", "order_total": 60871.88, "order_total_count": 192, "risk_score_count": 105, "risk_score": 1.18, "city": "Nevada", "country": "US"}, {"lat": 17.9333, "lon": -76.7833, "order_date": "2023-01-02", "order_total": 39845.14, "order_total_count": 70, "risk_score_count": 70, "risk_score": 1.19, "city": "Kingston", "country": "JM"}, {"lat": -34.8222, "lon": -58.5358, "order_date": "2023-01-02", "order_total": 30475.46, "order_total_count": 37, "risk_score_count": 37, "risk_score": 1.54, "city": "Buenos Aires", "country": "AR"}, {"lat": 28.19767, "lon": -81.81796, "order_date": "2023-01-02", "order_total": 170172.71, "order_total_count": 681, "risk_score_count": 304, "risk_score": 1.03, "city": "Florida", "country": "US"}, {"lat": 5.34, "lon": 116.16, "order_date": "2023-01-02", "order_total": 158.17, "order_total_count": 94, "risk_score_count": 94, "risk_score": 2.46, "city": "Sabah", "country": "MY"}, {"lat": 27.76, "lon": -15.59, "order_date": "2023-01-02", "order_total": 1069.02, "order_total_count": 42, "risk_score_count": 42, "risk_score": 2.05, "city": "Canary Islands", "country": "ES"}, {"lat": 44.78, "lon": -0.12, "order_date": "2023-01-02", "order_total": 7058.5, "order_total_count": 336, "risk_score_count": 336, "risk_score": 2.17, "city": "Aquitaine", "country": "FR"}, {"lat": 31.14678, "lon": -86.88109, "order_date": "2023-01-02", "order_total": 20525.24, "order_total_count": 195, "risk_score_count": 19, "risk_score": 1.37, "city": "Alabama", "country": "US"}, {"lat": 13.47817, "lon": 144.80902, "order_date": "2023-01-02", "order_total": 1672.79, "order_total_count": 5, "risk_score_count": 3, "risk_score": 1.0, "city": "Barrigada", "country": "GU"}, {"lat": 6.27, "lon": 100.42, "order_date": "2023-01-02", "order_total": 2376.04, "order_total_count": 299, "risk_score_count": 299, "risk_score": 2.41, "city": "Kedah", "country": "MY"}, {"lat": 47.33, "lon": 8.65, "order_date": "2023-01-02", "order_total": 255659.34, "order_total_count": 2216, "risk_score_count": 2216, "risk_score": 2.17, "city": "Zurich", "country": "CH"}, {"lat": 16.5167, "lon": -88.3667, "order_date": "2023-01-02", "order_total": 83483.32, "order_total_count": 144, "risk_score_count": 144, "risk_score": 1.25, "city": "Stann Creek", "country": "BZ"}, {"lat": -3.01, "lon": 114.39, "order_date": "2023-01-02", "order_total": 274.6, "order_total_count": 220, "risk_score_count": 220, "risk_score": 3.73, "city": "Central Kalimantan", "country": "ID"}, {"lat": 34.11036, "lon": -118.28346, "order_date": "2023-01-02", "order_total": 230690.53, "order_total_count": 713, "risk_score_count": 316, "risk_score": 1.15, "city": "California", "country": "US"}, {"lat": 50.75, "lon": 3.97, "order_date": "2023-01-02", "order_total": 76656.0, "order_total_count": 1927, "risk_score_count": 1927, "risk_score": 1.92, "city": "Flanders", "country": "BE"}, {"lat": 35.62031, "lon": -78.78364, "order_date": "2023-01-02", "order_total": 64423.35, "order_total_count": 410, "risk_score_count": 83, "risk_score": 1.06, "city": "North Carolina", "country": "US"}, {"lat": 39.93001, "lon": -94.82203, "order_date": "2023-01-02", "order_total": 80911.64, "order_total_count": 377, "risk_score_count": 62, "risk_score": 1.06, "city": "Missouri", "country": "US"}, {"lat": 53.65, "lon": -1.78, "order_date": "2023-01-02", "order_total": 35384.47, "order_total_count": 1615, "risk_score_count": 1615, "risk_score": 2.55, "city": "England", "country": "GB"}, {"lat": 16.18, "lon": 103.3, "order_date": "2023-01-02", "order_total": 4957.48, "order_total_count": 245, "risk_score_count": 245, "risk_score": 2.99, "city": "Maha Sarakham", "country": "TH"}, {"lat": 22.3089, "lon": 113.9147, "order_date": "2023-01-02", "order_total": 9098.41, "order_total_count": 57, "risk_score_count": 57, "risk_score": 3.14, "city": "", "country": "HK"}, {"lat": 11.03, "lon": 77.0433, "order_date": "2023-01-02", "order_total": 40846.69, "order_total_count": 25, "risk_score_count": 25, "risk_score": 1.28, "city": "Tamil Nadu", "country": "IN"}, {"lat": -18.0333, "lon": 178.5667, "order_date": "2023-01-02", "order_total": 629.78, "order_total_count": 6, "risk_score_count": 6, "risk_score": 1.33, "city": "Central", "country": "FJ"}, {"lat": 43.45174, "lon": -89.74622, "order_date": "2023-01-02", "order_total": 27761.7, "order_total_count": 264, "risk_score_count": 18, "risk_score": 1.0, "city": "Wisconsin", "country": "US"}, {"lat": 43.53, "lon": 6.15, "order_date": "2023-01-02", "order_total": 15504.9, "order_total_count": 581, "risk_score_count": 581, "risk_score": 2.5, "city": "Provence-Alpes-Cote d'Azur", "country": "FR"}, {"lat": 47.88, "lon": 14.13, "order_date": "2023-01-02", "order_total": 30247.73, "order_total_count": 296, "risk_score_count": 296, "risk_score": 2.15, "city": "Upper Austria", "country": "AT"}, {"lat": 37.85, "lon": 27.84, "order_date": "2023-01-02", "order_total": 3995.3, "order_total_count": 99, "risk_score_count": 99, "risk_score": 2.66, "city": "Aydin", "country": "TR"}, {"lat": 41.25363, "lon": -79.46247, "order_date": "2023-01-02", "order_total": 74896.42, "order_total_count": 438, "risk_score_count": 74, "risk_score": 1.14, "city": "Pennsylvania", "country": "US"}, {"lat": 21.43, "lon": 39.83, "order_date": "2023-01-02", "order_total": 12737.63, "order_total_count": 61, "risk_score_count": 61, "risk_score": 2.31, "city": "Makkah", "country": "SA"}, {"lat": 36.1067, "lon": -87.04768, "order_date": "2023-01-02", "order_total": 45738.39, "order_total_count": 321, "risk_score_count": 43, "risk_score": 1.0, "city": "Tennessee", "country": "US"}, {"lat": 34.0557, "lon": -84.37441, "order_date": "2023-01-02", "order_total": 134130.85, "order_total_count": 581, "risk_score_count": 202, "risk_score": 1.07, "city": "Georgia", "country": "US"}, {"lat": 6.1672, "lon": -75.5906, "order_date": "2023-01-02", "order_total": 52349.6, "order_total_count": 88, "risk_score_count": 88, "risk_score": 1.61, "city": "Antioquia", "country": "CO"}, {"lat": 10.8189, "lon": 106.6519, "order_date": "2023-01-02", "order_total": 26600.45, "order_total_count": 28, "risk_score_count": 28, "risk_score": 1.93, "city": "Ho Chi Minh City", "country": "VN"}, {"lat": 40.83, "lon": 14.25, "order_date": "2023-01-02", "order_total": 13769.62, "order_total_count": 39, "risk_score_count": 39, "risk_score": 1.92, "city": "Campania", "country": "IT"}, {"lat": 52.27, "lon": 5.16, "order_date": "2023-01-02", "order_total": 484743.67, "order_total_count": 4073, "risk_score_count": 4073, "risk_score": 1.18, "city": "North Holland", "country": "NL"}, {"lat": 51.17, "lon": 7.08, "order_date": "2023-01-02", "order_total": 311858.49, "order_total_count": 2884, "risk_score_count": 2884, "risk_score": 2.08, "city": "North Rhine-Westphalia", "country": "DE"}]
